[{
  "id": 98,
  "title": "Охотный ряд",
  "city_id": 1,
  "line_ids": [1, 15],
  "lat": 55.756533,
  "lng": 37.615309
}, {
  "id": 350,
  "title": "Технопарк",
  "city_id": 1,
  "line_ids": [2],
  "lat": 55.693931,
  "lng": 37.66442
}, {
  "id": 351,
  "title": "Фонвизинская",
  "city_id": 1,
  "line_ids": [11],
  "lat": 55.822888,
  "lng": 37.587344
}, {
  "id": 358,
  "title": "Ботанический сад (МЦК)",
  "city_id": 1,
  "line_ids": [16],
  "lat": 55.8440567,
  "lng": 37.6354922
}, {
  "id": 1,
  "title": "Авиамоторная",
  "city_id": 1,
  "line_ids": [8],
  "lat": 55.751432,
  "lng": 37.716612
}, {
  "id": 8,
  "title": "Аннино",
  "city_id": 1,
  "line_ids": [10],
  "lat": 55.583657,
  "lng": 37.596812
}, {
  "id": 13,
  "title": "Багратионовская",
  "city_id": 1,
  "line_ids": [4],
  "lat": 55.743801,
  "lng": 37.497863
}, {
  "id": 20,
  "title": "Библиотека имени Ленина",
  "city_id": 1,
  "line_ids": [1, 15],
  "lat": 55.751001,
  "lng": 37.609829
}, {
  "id": 357,
  "title": "Ботанический сад (Калужско-Рижская линия)",
  "city_id": 1,
  "line_ids": [6],
  "lat": 55.8440567,
  "lng": 37.6354922
}, {
  "id": 376,
  "title": "Площадь Гагарина",
  "city_id": 1,
  "line_ids": [16],
  "lat": 55.709162,
  "lng": 37.5814713
}, {
  "id": 27,
  "title": "Бульвар Дмитрия Донского",
  "city_id": 1,
  "line_ids": [10],
  "lat": 55.569667,
  "lng": 37.577346
}, {
  "id": 39,
  "title": "Выхино",
  "city_id": 1,
  "line_ids": [7],
  "lat": 55.715682,
  "lng": 37.817969
}, {
  "id": 45,
  "title": "Достоевская",
  "city_id": 1,
  "line_ids": [11],
  "lat": 55.781499,
  "lng": 37.614698
}, {
  "id": 51,
  "title": "Кантемировская",
  "city_id": 1,
  "line_ids": [2],
  "lat": 55.636107,
  "lng": 37.656218
}, {
  "id": 53,
  "title": "Каширская",
  "city_id": 1,
  "line_ids": [2, 12],
  "lat": 55.655412,
  "lng": 37.649256
}, {
  "id": 248,
  "title": "Котельники",
  "city_id": 1,
  "line_ids": [7],
  "lat": 55.6739,
  "lng": 37.859129
}, {
  "id": 61,
  "title": "Краснопресненская",
  "city_id": 1,
  "line_ids": [5],
  "lat": 55.760211,
  "lng": 37.577211
}, {
  "id": 79,
  "title": "Медведково",
  "city_id": 1,
  "line_ids": [6],
  "lat": 55.887473,
  "lng": 37.661527
}, {
  "id": 87,
  "title": "Нахимовский проспект",
  "city_id": 1,
  "line_ids": [10],
  "lat": 55.662379,
  "lng": 37.605274
}, {
  "id": 90,
  "title": "Новокузнецкая",
  "city_id": 1,
  "line_ids": [2, 15],
  "lat": 55.74185,
  "lng": 37.629295
}, {
  "id": 91,
  "title": "Новослободская",
  "city_id": 1,
  "line_ids": [5],
  "lat": 55.779565,
  "lng": 37.601421
}, {
  "id": 375,
  "title": "Панфиловская",
  "city_id": 1,
  "line_ids": [16],
  "lat": 55.798019,
  "lng": 37.499821
}, {
  "id": 110,
  "title": "Площадь Революции",
  "city_id": 1,
  "line_ids": [3, 15],
  "lat": 55.756756,
  "lng": 37.622774
}, {
  "id": 64,
  "title": "Крестьянская застава",
  "city_id": 1,
  "line_ids": [11],
  "lat": 55.732448,
  "lng": 37.665066
}, {
  "id": 365,
  "title": "Зорге",
  "city_id": 1,
  "line_ids": [16],
  "lat": 55.789153,
  "lng": 37.504214
}, {
  "id": 374,
  "title": "Окружная",
  "city_id": 1,
  "line_ids": [16],
  "lat": 55.848665,
  "lng": 37.572549
}, {
  "id": 355,
  "title": "Балтийская",
  "city_id": 1,
  "line_ids": [16],
  "lat": 55.825148,
  "lng": 37.494728
}, {
  "id": 379,
  "title": "Стрешнево",
  "city_id": 1,
  "line_ids": [16],
  "lat": 55.81254,
  "lng": 37.48746
}, {
  "id": 359,
  "title": "Верхние Котлы",
  "city_id": 1,
  "line_ids": [16],
  "lat": 55.689974,
  "lng": 37.618237
}, {
  "id": 114,
  "title": "Преображенская площадь",
  "city_id": 1,
  "line_ids": [1],
  "lat": 55.796167,
  "lng": 37.715022
}, {
  "id": 352,
  "title": "Автозаводская (Замоскворецкая линия)",
  "city_id": 1,
  "line_ids": [2],
  "lat": 55.706629,
  "lng": 37.657008
}, {
  "id": 353,
  "title": "Автозаводская (МЦК)",
  "city_id": 1,
  "line_ids": [16],
  "lat": 55.706629,
  "lng": 37.657008
}, {
  "id": 354,
  "title": "Андроновка",
  "city_id": 1,
  "line_ids": [16],
  "lat": 55.74639,
  "lng": 37.736905
}, {
  "id": 362,
  "title": "Дубровка (Люблинская линия)",
  "city_id": 1,
  "line_ids": [11],
  "lat": 55.71807,
  "lng": 37.676241
}, {
  "id": 356,
  "title": "Белокаменная",
  "city_id": 1,
  "line_ids": [16],
  "lat": 55.829471,
  "lng": 37.702427
}, {
  "id": 349,
  "title": "Бутырская",
  "city_id": 1,
  "line_ids": [11],
  "lat": 55.813531,
  "lng": 37.602247
}, {
  "id": 381,
  "title": "Хорошёво",
  "city_id": 1,
  "line_ids": [16],
  "lat": 55.776917,
  "lng": 37.507493
}, {
  "id": 366,
  "title": "Измайлово",
  "city_id": 1,
  "line_ids": [16],
  "lat": 55.788409,
  "lng": 37.743031
}, {
  "id": 368,
  "title": "Крымская",
  "city_id": 1,
  "line_ids": [16],
  "lat": 55.689999,
  "lng": 37.605122
}, {
  "id": 370,
  "title": "Локомотив",
  "city_id": 1,
  "line_ids": [16],
  "lat": 55.803201,
  "lng": 37.746049
}, {
  "id": 371,
  "title": "Лужники",
  "city_id": 1,
  "line_ids": [16],
  "lat": 55.720859,
  "lng": 37.56035
}, {
  "id": 372,
  "title": "Нижегородская",
  "city_id": 1,
  "line_ids": [16],
  "lat": 55.732028,
  "lng": 37.72811
}, {
  "id": 373,
  "title": "Новохохловская",
  "city_id": 1,
  "line_ids": [16],
  "lat": 55.724459,
  "lng": 37.717824
}, {
  "id": 30,
  "title": "ВДНХ",
  "city_id": 1,
  "line_ids": [6],
  "lat": 55.821047,
  "lng": 37.641135
}, {
  "id": 377,
  "title": "Ростокино",
  "city_id": 1,
  "line_ids": [16],
  "lat": 55.839264,
  "lng": 37.668444
}, {
  "id": 378,
  "title": "Соколиная Гора",
  "city_id": 1,
  "line_ids": [16],
  "lat": 55.769914,
  "lng": 37.745385
}, {
  "id": 380,
  "title": "Угрешская",
  "city_id": 1,
  "line_ids": [16],
  "lat": 55.717944,
  "lng": 37.695555
}, {
  "id": 159,
  "title": "Филёвский парк",
  "city_id": 1,
  "line_ids": [4],
  "lat": 55.739519,
  "lng": 37.483328
}, {
  "id": 382,
  "title": "Шелепиха",
  "city_id": 1,
  "line_ids": [16],
  "lat": 55.756786,
  "lng": 37.526043
}, {
  "id": 15,
  "title": "Бауманская",
  "city_id": 1,
  "line_ids": [3],
  "lat": 55.772406,
  "lng": 37.679035
}, {
  "id": 3,
  "title": "Академическая",
  "city_id": 1,
  "line_ids": [6],
  "lat": 55.687761,
  "lng": 37.573447
}, {
  "id": 4,
  "title": "Александровский сад",
  "city_id": 1,
  "line_ids": [4, 15],
  "lat": 55.752075,
  "lng": 37.609308
}, {
  "id": 5,
  "title": "Алексеевская",
  "city_id": 1,
  "line_ids": [6],
  "lat": 55.8078,
  "lng": 37.638737
}, {
  "id": 6,
  "title": "Алма-Атинская",
  "city_id": 1,
  "line_ids": [2],
  "lat": 55.63349,
  "lng": 37.765678
}, {
  "id": 7,
  "title": "Алтуфьево",
  "city_id": 1,
  "line_ids": [10],
  "lat": 55.898376,
  "lng": 37.587344
}, {
  "id": 10,
  "title": "Арбатская (Филевская линия)",
  "city_id": 1,
  "line_ids": [4, 15],
  "lat": 55.752131,
  "lng": 37.601519
}, {
  "id": 11,
  "title": "Аэропорт",
  "city_id": 1,
  "line_ids": [2],
  "lat": 55.800261,
  "lng": 37.53287
}, {
  "id": 12,
  "title": "Бабушкинская",
  "city_id": 1,
  "line_ids": [6],
  "lat": 55.869804,
  "lng": 37.664581
}, {
  "id": 14,
  "title": "Баррикадная",
  "city_id": 1,
  "line_ids": [7, 15],
  "lat": 55.760818,
  "lng": 37.58128
}, {
  "id": 16,
  "title": "Беговая",
  "city_id": 1,
  "line_ids": [7],
  "lat": 55.773469,
  "lng": 37.545581
}, {
  "id": 18,
  "title": "Беляево",
  "city_id": 1,
  "line_ids": [6],
  "lat": 55.642357,
  "lng": 37.526115
}, {
  "id": 369,
  "title": "Лихоборы",
  "city_id": 1,
  "line_ids": [16],
  "lat": 55.847735,
  "lng": 37.553235
}, {
  "id": 29,
  "title": "Варшавская",
  "city_id": 1,
  "line_ids": [12],
  "lat": 55.653294,
  "lng": 37.619522
}, {
  "id": 43,
  "title": "Добрынинская",
  "city_id": 1,
  "line_ids": [5, 10],
  "lat": 55.729006,
  "lng": 37.622513
}, {
  "id": 77,
  "title": "Марьино",
  "city_id": 1,
  "line_ids": [11],
  "lat": 55.65051,
  "lng": 37.744334
}, {
  "id": 84,
  "title": "Мякинино",
  "city_id": 1,
  "line_ids": [3],
  "lat": 55.82399,
  "lng": 37.384747
}, {
  "id": 95,
  "title": "Октябрьское поле",
  "city_id": 1,
  "line_ids": [7],
  "lat": 55.793581,
  "lng": 37.493317
}, {
  "id": 36,
  "title": "Волоколамская",
  "city_id": 1,
  "line_ids": [3],
  "lat": 55.835508,
  "lng": 37.382034
}, {
  "id": 81,
  "title": "Менделеевская",
  "city_id": 1,
  "line_ids": [15, 10],
  "lat": 55.781818,
  "lng": 37.59869
}, {
  "id": 104,
  "title": "Перово",
  "city_id": 1,
  "line_ids": [8],
  "lat": 55.75132,
  "lng": 37.786887
}, {
  "id": 28,
  "title": "Бунинская аллея",
  "city_id": 1,
  "line_ids": [13],
  "lat": 55.537964,
  "lng": 37.515919
}, {
  "id": 33,
  "title": "Войковская",
  "city_id": 1,
  "line_ids": [2],
  "lat": 55.818923,
  "lng": 37.497791
}, {
  "id": 41,
  "title": "Динамо",
  "city_id": 1,
  "line_ids": [2],
  "lat": 55.789704,
  "lng": 37.558212
}, {
  "id": 49,
  "title": "Измайловская",
  "city_id": 1,
  "line_ids": [3],
  "lat": 55.787746,
  "lng": 37.78138
}, {
  "id": 54,
  "title": "Киевская",
  "city_id": 1,
  "line_ids": [3, 4, 5],
  "lat": 55.744596,
  "lng": 37.567545
}, {
  "id": 52,
  "title": "Каховская",
  "city_id": 1,
  "line_ids": [10, 12],
  "lat": 55.653177,
  "lng": 37.598232
}, {
  "id": 56,
  "title": "Кожуховская",
  "city_id": 1,
  "line_ids": [11],
  "lat": 55.70632,
  "lng": 37.685683
}, {
  "id": 59,
  "title": "Коньково",
  "city_id": 1,
  "line_ids": [6],
  "lat": 55.633038,
  "lng": 37.519602
}, {
  "id": 65,
  "title": "Кропоткинская",
  "city_id": 1,
  "line_ids": [1, 15],
  "lat": 55.745068,
  "lng": 37.603487
}, {
  "id": 66,
  "title": "Крылатское",
  "city_id": 1,
  "line_ids": [3],
  "lat": 55.756842,
  "lng": 37.408139
}, {
  "id": 69,
  "title": "Кунцевская",
  "city_id": 1,
  "line_ids": [3, 4],
  "lat": 55.730791,
  "lng": 37.446587
}, {
  "id": 71,
  "title": "Кутузовская",
  "city_id": 1,
  "line_ids": [4, 16],
  "lat": 55.740178,
  "lng": 37.534236
}, {
  "id": 74,
  "title": "Люблино",
  "city_id": 1,
  "line_ids": [11],
  "lat": 55.675682,
  "lng": 37.76177
}, {
  "id": 76,
  "title": "Марьина Роща",
  "city_id": 1,
  "line_ids": [11],
  "lat": 55.793718,
  "lng": 37.616162
}, {
  "id": 85,
  "title": "Нагатинская",
  "city_id": 1,
  "line_ids": [10],
  "lat": 55.683386,
  "lng": 37.622863
}, {
  "id": 88,
  "title": "Новогиреево",
  "city_id": 1,
  "line_ids": [8],
  "lat": 55.75166,
  "lng": 37.817169
}, {
  "id": 89,
  "title": "Новокосино",
  "city_id": 1,
  "line_ids": [8],
  "lat": 55.745113,
  "lng": 37.864052
}, {
  "id": 93,
  "title": "Новые Черёмушки",
  "city_id": 1,
  "line_ids": [6],
  "lat": 55.670077,
  "lng": 37.554493
}, {
  "id": 97,
  "title": "Отрадное",
  "city_id": 1,
  "line_ids": [10],
  "lat": 55.863207,
  "lng": 37.604762
}, {
  "id": 106,
  "title": "Печатники",
  "city_id": 1,
  "line_ids": [11],
  "lat": 55.692972,
  "lng": 37.728398
}, {
  "id": 108,
  "title": "Планерная",
  "city_id": 1,
  "line_ids": [7],
  "lat": 55.860524,
  "lng": 37.436382
}, {
  "id": 113,
  "title": "Пражская",
  "city_id": 1,
  "line_ids": [10],
  "lat": 55.612614,
  "lng": 37.604538
}, {
  "id": 126,
  "title": "Свиблово",
  "city_id": 1,
  "line_ids": [6],
  "lat": 55.855224,
  "lng": 37.652238
}, {
  "id": 156,
  "title": "Улица Скобелевская",
  "city_id": 1,
  "line_ids": [13],
  "lat": 55.548141,
  "lng": 37.55487
}, {
  "id": 174,
  "title": "Электрозаводская",
  "city_id": 1,
  "line_ids": [3],
  "lat": 55.782066,
  "lng": 37.705284
}, {
  "id": 25,
  "title": "Братиславская",
  "city_id": 1,
  "line_ids": [11],
  "lat": 55.659404,
  "lng": 37.750451
}, {
  "id": 37,
  "title": "Воробьёвы горы",
  "city_id": 1,
  "line_ids": [1],
  "lat": 55.710438,
  "lng": 37.559317
}, {
  "id": 42,
  "title": "Дмитровская",
  "city_id": 1,
  "line_ids": [10],
  "lat": 55.807881,
  "lng": 37.580831
}, {
  "id": 31,
  "title": "Владыкино",
  "city_id": 1,
  "line_ids": [10, 16],
  "lat": 55.847922,
  "lng": 37.590282
}, {
  "id": 62,
  "title": "Красносельская",
  "city_id": 1,
  "line_ids": [1],
  "lat": 55.779849,
  "lng": 37.666072
}, {
  "id": 118,
  "title": "Профсоюзная",
  "city_id": 1,
  "line_ids": [6],
  "lat": 55.67793,
  "lng": 37.562874
}, {
  "id": 120,
  "title": "Пятницкое шоссе",
  "city_id": 1,
  "line_ids": [3],
  "lat": 55.855674,
  "lng": 37.354034
}, {
  "id": 125,
  "title": "Савёловская",
  "city_id": 1,
  "line_ids": [10],
  "lat": 55.79391,
  "lng": 37.587955
}, {
  "id": 129,
  "title": "Серпуховская",
  "city_id": 1,
  "line_ids": [10],
  "lat": 55.726872,
  "lng": 37.624992
}, {
  "id": 133,
  "title": "Сокол",
  "city_id": 1,
  "line_ids": [2],
  "lat": 55.804805,
  "lng": 37.515461
}, {
  "id": 135,
  "title": "Спортивная",
  "city_id": 1,
  "line_ids": [1],
  "lat": 55.723404,
  "lng": 37.563907
}, {
  "id": 137,
  "title": "Строгино",
  "city_id": 1,
  "line_ids": [3],
  "lat": 55.803691,
  "lng": 37.403118
}, {
  "id": 139,
  "title": "Сухаревская",
  "city_id": 1,
  "line_ids": [6, 15],
  "lat": 55.772315,
  "lng": 37.632323
}, {
  "id": 285,
  "title": "Выставочный центр",
  "city_id": 1,
  "line_ids": [14],
  "lat": 55.824086,
  "lng": 37.638494
}, {
  "id": 143,
  "title": "Театральная",
  "city_id": 1,
  "line_ids": [2, 15],
  "lat": 55.758808,
  "lng": 37.617689
}, {
  "id": 148,
  "title": "Трубная",
  "city_id": 1,
  "line_ids": [15, 11],
  "lat": 55.767939,
  "lng": 37.621884
}, {
  "id": 149,
  "title": "Тульская",
  "city_id": 1,
  "line_ids": [10],
  "lat": 55.708841,
  "lng": 37.622612
}, {
  "id": 158,
  "title": "Университет",
  "city_id": 1,
  "line_ids": [1],
  "lat": 55.69244,
  "lng": 37.534532
}, {
  "id": 161,
  "title": "Фрунзенская",
  "city_id": 1,
  "line_ids": [1],
  "lat": 55.727232,
  "lng": 37.580328
}, {
  "id": 162,
  "title": "Царицыно",
  "city_id": 1,
  "line_ids": [2],
  "lat": 55.621541,
  "lng": 37.668848
}, {
  "id": 165,
  "title": "Чертановская",
  "city_id": 1,
  "line_ids": [10],
  "lat": 55.640538,
  "lng": 37.606074
}, {
  "id": 167,
  "title": "Чистые пруды",
  "city_id": 1,
  "line_ids": [1, 15],
  "lat": 55.764794,
  "lng": 37.638683
}, {
  "id": 170,
  "title": "Шипиловская",
  "city_id": 1,
  "line_ids": [11],
  "lat": 55.620733,
  "lng": 37.74375
}, {
  "id": 172,
  "title": "Щёлковская",
  "city_id": 1,
  "line_ids": [3],
  "lat": 55.810228,
  "lng": 37.798556
}, {
  "id": 175,
  "title": "Юго-Западная",
  "city_id": 1,
  "line_ids": [1],
  "lat": 55.663146,
  "lng": 37.482852
}, {
  "id": 19,
  "title": "Бибирево",
  "city_id": 1,
  "line_ids": [10],
  "lat": 55.883868,
  "lng": 37.603011
}, {
  "id": 277,
  "title": "Румянцево",
  "city_id": 1,
  "line_ids": [1],
  "lat": 55.633028,
  "lng": 37.441395
}, {
  "id": 131,
  "title": "Смоленская (Арбатско-Покровская линия)",
  "city_id": 1,
  "line_ids": [3, 15],
  "lat": 55.747642,
  "lng": 37.583841
}, {
  "id": 78,
  "title": "Маяковская",
  "city_id": 1,
  "line_ids": [2, 15],
  "lat": 55.769808,
  "lng": 37.596192
}, {
  "id": 101,
  "title": "Парк Победы",
  "city_id": 1,
  "line_ids": [3, 9],
  "lat": 55.736164,
  "lng": 37.516925
}, {
  "id": 105,
  "title": "Петровско-Разумовская",
  "city_id": 1,
  "line_ids": [10, 11],
  "lat": 55.83664,
  "lng": 37.575594
}, {
  "id": 122,
  "title": "Рижская",
  "city_id": 1,
  "line_ids": [6],
  "lat": 55.792513,
  "lng": 37.636123
}, {
  "id": 246,
  "title": "Спартак",
  "city_id": 1,
  "line_ids": [7],
  "lat": 55.818149,
  "lng": 37.434496
}, {
  "id": 279,
  "title": "Телецентр",
  "city_id": 1,
  "line_ids": [14],
  "lat": 55.821795,
  "lng": 37.608975
}, {
  "id": 145,
  "title": "Тёплый Стан",
  "city_id": 1,
  "line_ids": [6],
  "lat": 55.61873,
  "lng": 37.505912
}, {
  "id": 47,
  "title": "Жулебино",
  "city_id": 1,
  "line_ids": [7],
  "lat": 55.684493,
  "lng": 37.855087
}, {
  "id": 22,
  "title": "Борисово",
  "city_id": 1,
  "line_ids": [11],
  "lat": 55.633582,
  "lng": 37.743813
}, {
  "id": 284,
  "title": "Битцевский парк",
  "city_id": 1,
  "line_ids": [13],
  "lat": 55.601188,
  "lng": 37.555328
}, {
  "id": 26,
  "title": "Бульвар Адмирала Ушакова",
  "city_id": 1,
  "line_ids": [13],
  "lat": 55.545406,
  "lng": 37.543219
}, {
  "id": 123,
  "title": "Римская",
  "city_id": 1,
  "line_ids": [11],
  "lat": 55.746228,
  "lng": 37.681236
}, {
  "id": 150,
  "title": "Тургеневская",
  "city_id": 1,
  "line_ids": [6, 15],
  "lat": 55.765817,
  "lng": 37.636554
}, {
  "id": 155,
  "title": "Бульвар Рокоссовского",
  "city_id": 1,
  "line_ids": [1, 16],
  "lat": 55.814264,
  "lng": 37.735117
}, {
  "id": 34,
  "title": "Волгоградский проспект",
  "city_id": 1,
  "line_ids": [7],
  "lat": 55.7249,
  "lng": 37.687102
}, {
  "id": 173,
  "title": "Щукинская",
  "city_id": 1,
  "line_ids": [7],
  "lat": 55.808827,
  "lng": 37.463772
}, {
  "id": 32,
  "title": "Водный стадион",
  "city_id": 1,
  "line_ids": [2],
  "lat": 55.839835,
  "lng": 37.486724
}, {
  "id": 35,
  "title": "Волжская",
  "city_id": 1,
  "line_ids": [11],
  "lat": 55.690765,
  "lng": 37.753344
}, {
  "id": 38,
  "title": "Выставочная",
  "city_id": 1,
  "line_ids": [4],
  "lat": 55.749547,
  "lng": 37.543021
}, {
  "id": 44,
  "title": "Домодедовская",
  "city_id": 1,
  "line_ids": [2],
  "lat": 55.610697,
  "lng": 37.717905
}, {
  "id": 48,
  "title": "Зябликово",
  "city_id": 1,
  "line_ids": [11],
  "lat": 55.612329,
  "lng": 37.745205
}, {
  "id": 50,
  "title": "Калужская",
  "city_id": 1,
  "line_ids": [6],
  "lat": 55.656682,
  "lng": 37.540075
}, {
  "id": 178,
  "title": "Лермонтовский проспект",
  "city_id": 1,
  "line_ids": [7],
  "lat": 55.701699,
  "lng": 37.852374
}, {
  "id": 103,
  "title": "Первомайская",
  "city_id": 1,
  "line_ids": [3],
  "lat": 55.794376,
  "lng": 37.799436
}, {
  "id": 94,
  "title": "Октябрьская",
  "city_id": 1,
  "line_ids": [5, 6],
  "lat": 55.731257,
  "lng": 37.612766
}, {
  "id": 55,
  "title": "Китай-город",
  "city_id": 1,
  "line_ids": [6, 7, 15],
  "lat": 55.75436,
  "lng": 37.633877
}, {
  "id": 57,
  "title": "Коломенская",
  "city_id": 1,
  "line_ids": [2],
  "lat": 55.678407,
  "lng": 37.663827
}, {
  "id": 58,
  "title": "Комсомольская",
  "city_id": 1,
  "line_ids": [1, 5],
  "lat": 55.775575,
  "lng": 37.654879
}, {
  "id": 60,
  "title": "Красногвардейская",
  "city_id": 1,
  "line_ids": [2],
  "lat": 55.613738,
  "lng": 37.746346
}, {
  "id": 63,
  "title": "Красные ворота",
  "city_id": 1,
  "line_ids": [1, 15],
  "lat": 55.768795,
  "lng": 37.648888
}, {
  "id": 67,
  "title": "Кузнецкий мост",
  "city_id": 1,
  "line_ids": [7, 15],
  "lat": 55.761578,
  "lng": 37.624373
}, {
  "id": 68,
  "title": "Кузьминки",
  "city_id": 1,
  "line_ids": [7],
  "lat": 55.705417,
  "lng": 37.765902
}, {
  "id": 70,
  "title": "Курская",
  "city_id": 1,
  "line_ids": [3, 5],
  "lat": 55.75859,
  "lng": 37.660045
}, {
  "id": 72,
  "title": "Ленинский проспект",
  "city_id": 1,
  "line_ids": [6],
  "lat": 55.707689,
  "lng": 37.586239
}, {
  "id": 245,
  "title": "Лесопарковая",
  "city_id": 1,
  "line_ids": [13],
  "lat": 55.581968,
  "lng": 37.57731
}, {
  "id": 73,
  "title": "Лубянка",
  "city_id": 1,
  "line_ids": [1, 15],
  "lat": 55.759162,
  "lng": 37.627355
}, {
  "id": 75,
  "title": "Марксистская",
  "city_id": 1,
  "line_ids": [8],
  "lat": 55.740978,
  "lng": 37.656721
}, {
  "id": 80,
  "title": "Международная",
  "city_id": 1,
  "line_ids": [4],
  "lat": 55.748741,
  "lng": 37.533535
}, {
  "id": 82,
  "title": "Митино",
  "city_id": 1,
  "line_ids": [3],
  "lat": 55.845734,
  "lng": 37.362154
}, {
  "id": 83,
  "title": "Молодёжная",
  "city_id": 1,
  "line_ids": [3],
  "lat": 55.741004,
  "lng": 37.416386
}, {
  "id": 86,
  "title": "Нагорная",
  "city_id": 1,
  "line_ids": [10],
  "lat": 55.672854,
  "lng": 37.610745
}, {
  "id": 92,
  "title": "Новоясеневская",
  "city_id": 1,
  "line_ids": [6],
  "lat": 55.601833,
  "lng": 37.553442
}, {
  "id": 96,
  "title": "Орехово",
  "city_id": 1,
  "line_ids": [2],
  "lat": 55.613051,
  "lng": 37.693408
}, {
  "id": 99,
  "title": "Павелецкая",
  "city_id": 1,
  "line_ids": [2, 5],
  "lat": 55.729797,
  "lng": 37.638952
}, {
  "id": 102,
  "title": "Партизанская",
  "city_id": 1,
  "line_ids": [3],
  "lat": 55.788424,
  "lng": 37.749265
}, {
  "id": 107,
  "title": "Пионерская",
  "city_id": 1,
  "line_ids": [4],
  "lat": 55.735986,
  "lng": 37.467078
}, {
  "id": 109,
  "title": "Площадь Ильича",
  "city_id": 1,
  "line_ids": [8],
  "lat": 55.747069,
  "lng": 37.680949
}, {
  "id": 111,
  "title": "Полежаевская",
  "city_id": 1,
  "line_ids": [7],
  "lat": 55.777099,
  "lng": 37.520258
}, {
  "id": 112,
  "title": "Полянка",
  "city_id": 1,
  "line_ids": [15, 10],
  "lat": 55.736807,
  "lng": 37.618471
}, {
  "id": 115,
  "title": "Пролетарская",
  "city_id": 1,
  "line_ids": [7],
  "lat": 55.731658,
  "lng": 37.664779
}, {
  "id": 117,
  "title": "Проспект Мира",
  "city_id": 1,
  "line_ids": [5, 6],
  "lat": 55.781757,
  "lng": 37.633482
}, {
  "id": 119,
  "title": "Пушкинская",
  "city_id": 1,
  "line_ids": [7, 15],
  "lat": 55.765747,
  "lng": 37.6039
}, {
  "id": 278,
  "title": "Саларьево",
  "city_id": 1,
  "line_ids": [1],
  "lat": 55.621811,
  "lng": 37.424048
}, {
  "id": 127,
  "title": "Севастопольская",
  "city_id": 1,
  "line_ids": [10],
  "lat": 55.651552,
  "lng": 37.598384
}, {
  "id": 128,
  "title": "Семёновская",
  "city_id": 1,
  "line_ids": [3],
  "lat": 55.783195,
  "lng": 37.719423
}, {
  "id": 100,
  "title": "Парк культуры",
  "city_id": 1,
  "line_ids": [1, 5],
  "lat": 55.736077,
  "lng": 37.595061
}, {
  "id": 141,
  "title": "Таганская",
  "city_id": 1,
  "line_ids": [5, 7],
  "lat": 55.739199,
  "lng": 37.653613
}, {
  "id": 151,
  "title": "Тушинская",
  "city_id": 1,
  "line_ids": [7],
  "lat": 55.827034,
  "lng": 37.437586
}, {
  "id": 169,
  "title": "Шаболовская",
  "city_id": 1,
  "line_ids": [6],
  "lat": 55.718821,
  "lng": 37.607799
}, {
  "id": 138,
  "title": "Студенческая",
  "city_id": 1,
  "line_ids": [4],
  "lat": 55.738784,
  "lng": 37.548375
}, {
  "id": 140,
  "title": "Сходненская",
  "city_id": 1,
  "line_ids": [7],
  "lat": 55.85051,
  "lng": 37.439787
}, {
  "id": 144,
  "title": "Текстильщики",
  "city_id": 1,
  "line_ids": [7],
  "lat": 55.708831,
  "lng": 37.732593
}, {
  "id": 146,
  "title": "Тимирязевская",
  "city_id": 1,
  "line_ids": [10, 14],
  "lat": 55.819044,
  "lng": 37.575486
}, {
  "id": 247,
  "title": "Тропарёво",
  "city_id": 1,
  "line_ids": [1],
  "lat": 55.64574,
  "lng": 37.472378
}, {
  "id": 153,
  "title": "Улица Академика Янгеля",
  "city_id": 1,
  "line_ids": [10],
  "lat": 55.595293,
  "lng": 37.600864
}, {
  "id": 160,
  "title": "Фили",
  "city_id": 1,
  "line_ids": [4],
  "lat": 55.74597,
  "lng": 37.514949
}, {
  "id": 166,
  "title": "Чеховская",
  "city_id": 1,
  "line_ids": [15, 10],
  "lat": 55.765843,
  "lng": 37.608167
}, {
  "id": 171,
  "title": "Шоссе Энтузиастов",
  "city_id": 1,
  "line_ids": [8, 16],
  "lat": 55.758255,
  "lng": 37.751583
}, {
  "id": 176,
  "title": "Южная",
  "city_id": 1,
  "line_ids": [10],
  "lat": 55.622436,
  "lng": 37.609047
}, {
  "id": 364,
  "title": "ЗИЛ",
  "city_id": 1,
  "line_ids": [16],
  "lat": 55.698665,
  "lng": 37.649265
}, {
  "id": 116,
  "title": "Проспект Вернадского",
  "city_id": 1,
  "line_ids": [1],
  "lat": 55.67691,
  "lng": 37.505831
}, {
  "id": 121,
  "title": "Речной вокзал",
  "city_id": 1,
  "line_ids": [2],
  "lat": 55.854891,
  "lng": 37.476231
}, {
  "id": 124,
  "title": "Рязанский проспект",
  "city_id": 1,
  "line_ids": [7],
  "lat": 55.717366,
  "lng": 37.793606
}, {
  "id": 132,
  "title": "Смоленская (Филевская линия)",
  "city_id": 1,
  "line_ids": [4, 15],
  "lat": 55.74906,
  "lng": 37.581658
}, {
  "id": 134,
  "title": "Сокольники",
  "city_id": 1,
  "line_ids": [1],
  "lat": 55.789198,
  "lng": 37.6797
}, {
  "id": 154,
  "title": "Улица Горчакова",
  "city_id": 1,
  "line_ids": [13],
  "lat": 55.541825,
  "lng": 37.531226
}, {
  "id": 177,
  "title": "Ясенево",
  "city_id": 1,
  "line_ids": [6],
  "lat": 55.606182,
  "lng": 37.5334
}, {
  "id": 367,
  "title": "Коптево",
  "city_id": 1,
  "line_ids": [16],
  "lat": 55.840396,
  "lng": 37.521309
}, {
  "id": 280,
  "title": "Улица Академика Королева",
  "city_id": 1,
  "line_ids": [14],
  "lat": 55.821821,
  "lng": 37.627166
}, {
  "id": 363,
  "title": "Дубровка (МЦК)",
  "city_id": 1,
  "line_ids": [16],
  "lat": 55.71807,
  "lng": 37.676241
}, {
  "id": 383,
  "title": "Ломоносовский проспект",
  "city_id": 1,
  "line_ids": [9],
  "lat": 55.70706,
  "lng": 37.516063
}, {
  "id": 384,
  "title": "Минская",
  "city_id": 1,
  "line_ids": [9],
  "lat": 55.723947,
  "lng": 37.497872
}, {
  "id": 385,
  "title": "Раменки",
  "city_id": 1,
  "line_ids": [9],
  "lat": 55.697691,
  "lng": 37.498725
}, {
  "id": 130,
  "title": "Славянский бульвар",
  "city_id": 1,
  "line_ids": [3],
  "lat": 55.729828,
  "lng": 37.472171
}, {
  "id": 136,
  "title": "Сретенский бульвар",
  "city_id": 1,
  "line_ids": [15, 11],
  "lat": 55.76643,
  "lng": 37.636015
}, {
  "id": 142,
  "title": "Тверская",
  "city_id": 1,
  "line_ids": [2, 15],
  "lat": 55.764455,
  "lng": 37.605939
}, {
  "id": 9,
  "title": "Арбатская (Арбатско-Покровская линия)",
  "city_id": 1,
  "line_ids": [3, 15],
  "lat": 55.752333,
  "lng": 37.603316
}, {
  "id": 17,
  "title": "Белорусская",
  "city_id": 1,
  "line_ids": [2, 5],
  "lat": 55.777155,
  "lng": 37.586212
}, {
  "id": 23,
  "title": "Боровицкая",
  "city_id": 1,
  "line_ids": [15, 10],
  "lat": 55.750454,
  "lng": 37.609254
}, {
  "id": 361,
  "title": "Деловой центр (Солнцевская линия)",
  "city_id": 1,
  "line_ids": [9],
  "lat": 55.748843,
  "lng": 37.542671
}, {
  "id": 46,
  "title": "Дубровка",
  "city_id": 1,
  "line_ids": [11],
  "lat": 55.71807,
  "lng": 37.676241
}, {
  "id": 147,
  "title": "Третьяковская",
  "city_id": 1,
  "line_ids": [6, 8, 15],
  "lat": 55.740958,
  "lng": 37.626322
}, {
  "id": 360,
  "title": "Деловой центр (МЦК)",
  "city_id": 1,
  "line_ids": [16],
  "lat": 55.748843,
  "lng": 37.542671
}, {
  "id": 152,
  "title": "Улица 1905 года",
  "city_id": 1,
  "line_ids": [7],
  "lat": 55.764455,
  "lng": 37.561059
}, {
  "id": 281,
  "title": "Улица Милашенкова",
  "city_id": 1,
  "line_ids": [14],
  "lat": 55.821876,
  "lng": 37.591207
}, {
  "id": 282,
  "title": "Улица Сергея Эйзенштейна",
  "city_id": 1,
  "line_ids": [14],
  "lat": 55.829305,
  "lng": 37.644998
}, {
  "id": 163,
  "title": "Цветной бульвар",
  "city_id": 1,
  "line_ids": [15, 10],
  "lat": 55.771616,
  "lng": 37.620986
}, {
  "id": 164,
  "title": "Черкизовская",
  "city_id": 1,
  "line_ids": [1],
  "lat": 55.804025,
  "lng": 37.745528
}, {
  "id": 168,
  "title": "Чкаловская",
  "city_id": 1,
  "line_ids": [15, 11],
  "lat": 55.75593,
  "lng": 37.659263
}, {
  "id": 157,
  "title": "Улица Старокачаловская",
  "city_id": 1,
  "line_ids": [13],
  "lat": 55.568425,
  "lng": 37.576403
}]